let praias = {
"type": "FeatureCollection",
"name": "praias",
"crs": { "type": "name", "properties": { "name": "urn:ogc:def:crs:OGC:1.3:CRS84" } },
"features": [
{ "type": "Feature", "properties": { "id_p": 3.0, "nome_praia": "Praia dos Aveiros", "pcoordy": 37.08352, "pcoordx": -8.231363, "vigiadas": "Sim", "galardoadas": "Não", "id_c": 1500801.0, "fotos": "https:\/\/i.ibb.co\/tY9HB8m\/praia-aveiros.jpg" }, "geometry": { "type": "Point", "coordinates": [ -8.23136, 37.08352 ] } },
{ "type": "Feature", "properties": { "id_p": 4.0, "nome_praia": "Praia do Barranco das Belharucas", "pcoordy": 37.090826, "pcoordx": -8.182876, "vigiadas": "Sim", "galardoadas": "Sim", "id_c": 1500801.0, "fotos": "https:\/\/i.ibb.co\/LpK76tj\/praia-barranco-belha-ab-Qkw.jpg" }, "geometry": { "type": "Point", "coordinates": [ -8.18288, 37.09083 ] } },
{ "type": "Feature", "properties": { "id_p": 5.0, "nome_praia": "Praia do Castelo", "pcoordy": 37.073155, "pcoordx": -8.298651, "vigiadas": "Sim", "galardoadas": "Sim", "id_c": 1500801.0, "fotos": "https:\/\/i.ibb.co\/1q8kqZr\/praia-castelo.jpg" }, "geometry": { "type": "Point", "coordinates": [ -8.29865, 37.07315 ] } },
{ "type": "Feature", "properties": { "id_p": 6.0, "nome_praia": "Praia da Coelha", "pcoordy": 37.073658, "pcoordx": -8.293734, "vigiadas": "Sim", "galardoadas": "Sim", "id_c": 1500801.0, "fotos": "https:\/\/i.ibb.co\/6JtMqdH\/praia-coelha.jpg" }, "geometry": { "type": "Point", "coordinates": [ -8.29373, 37.07366 ] } },
{ "type": "Feature", "properties": { "id_p": 7.0, "nome_praia": "Praia do Evaristo", "pcoordy": 37.074161, "pcoordx": -8.302916, "vigiadas": "Sim", "galardoadas": "Sim", "id_c": 1500801.0, "fotos": "https:\/\/i.ibb.co\/jMFnT8b\/praia-evaristo.jpg" }, "geometry": { "type": "Point", "coordinates": [ -8.30292, 37.07416 ] } },
{ "type": "Feature", "properties": { "id_p": 8.0, "nome_praia": "Praia da Falésia Açoteias", "pcoordy": 37.086261, "pcoordx": -8.168319, "vigiadas": "Sim", "galardoadas": "Não", "id_c": 1500801.0, "fotos": "https:\/\/i.ibb.co\/THQbfRV\/praia-falesia-acotei-R59lt.jpg" }, "geometry": { "type": "Point", "coordinates": [ -8.16832, 37.08626 ] } },
{ "type": "Feature", "properties": { "id_p": 9.0, "nome_praia": "Praia da Falésia Alfamar", "pcoordy": 37.083019, "pcoordx": -8.157458, "vigiadas": "Sim", "galardoadas": "Não", "id_c": 1500801.0, "fotos": "https:\/\/i.ibb.co\/YyVD78c\/praia-falesia-alfama-s-Ob8r.jpg" }, "geometry": { "type": "Point", "coordinates": [ -8.15746, 37.08302 ] } },
{ "type": "Feature", "properties": { "id_p": 10.0, "nome_praia": "Praia da Galé Leste", "pcoordy": 37.080318, "pcoordx": -8.315744, "vigiadas": "Sim", "galardoadas": "Sim", "id_c": 1500801.0, "fotos": "https:\/\/i.ibb.co\/gZgMDSN\/praia-gale-leste.jpg" }, "geometry": { "type": "Point", "coordinates": [ -8.31574, 37.08032 ] } },
{ "type": "Feature", "properties": { "id_p": 11.0, "nome_praia": "Praia da Galé Oeste", "pcoordy": 37.08454, "pcoordx": -8.322145, "vigiadas": "Sim", "galardoadas": "Sim", "id_c": 1500801.0, "fotos": "https:\/\/i.ibb.co\/jbk7dPv\/praia-gale-oeste.jpg" }, "geometry": { "type": "Point", "coordinates": [ -8.32215, 37.08454 ] } },
{ "type": "Feature", "properties": { "id_p": 12.0, "nome_praia": "Praia do INATEL", "pcoordy": 37.083787, "pcoordx": -8.237877, "vigiadas": "Sim", "galardoadas": "Sim", "id_c": 1500801.0, "fotos": "https:\/\/i.ibb.co\/FzmBHm3\/praia-inatel.jpg" }, "geometry": { "type": "Point", "coordinates": [ -8.23788, 37.08379 ] } },
{ "type": "Feature", "properties": { "id_p": 13.0, "nome_praia": "Praia do Manuel Lourenço", "pcoordy": 37.076494, "pcoordx": -8.309421, "vigiadas": "Sim", "galardoadas": "Sim", "id_c": 1500801.0, "fotos": "https:\/\/i.ibb.co\/dW4qGgf\/praia-manuel-lourenc-VANRf.jpg" }, "geometry": { "type": "Point", "coordinates": [ -8.30942, 37.07649 ] } },
{ "type": "Feature", "properties": { "id_p": 14.0, "nome_praia": "Praia da Maria Luisa", "pcoordy": 37.088961, "pcoordx": -8.200557, "vigiadas": "Sim", "galardoadas": "Sim", "id_c": 1500801.0, "fotos": "https:\/\/i.ibb.co\/GPVn1x6\/praia-maria-luisa.jpg" }, "geometry": { "type": "Point", "coordinates": [ -8.20056, 37.08896 ] } },
{ "type": "Feature", "properties": { "id_p": 15.0, "nome_praia": "Praia dos Olhos dagua", "pcoordy": 37.089737, "pcoordx": -8.190085, "vigiadas": "Sim", "galardoadas": "Não", "id_c": 1500801.0, "fotos": "https:\/\/i.ibb.co\/FKgLtx0\/praia-olhosdagua.jpg" }, "geometry": { "type": "Point", "coordinates": [ -8.19008, 37.08974 ] } },
{ "type": "Feature", "properties": { "id_p": 16.0, "nome_praia": "Praia da Oura", "pcoordy": 37.085998, "pcoordx": -8.225872, "vigiadas": "Sim", "galardoadas": "Sim", "id_c": 1500801.0, "fotos": "https:\/\/i.ibb.co\/Byy3F46\/praia-oura.jpg" }, "geometry": { "type": "Point", "coordinates": [ -8.22587, 37.086 ] } },
{ "type": "Feature", "properties": { "id_p": 17.0, "nome_praia": "Praia da Oura Leste", "pcoordy": 37.084598, "pcoordx": -8.220312, "vigiadas": "Sim", "galardoadas": "Sim", "id_c": 1500801.0, "fotos": "https:\/\/i.ibb.co\/YhSgnp1\/praia-oura-leste.jpg" }, "geometry": { "type": "Point", "coordinates": [ -8.22031, 37.0846 ] } },
{ "type": "Feature", "properties": { "id_p": 18.0, "nome_praia": "Praia do Peneco", "pcoordy": 37.08627, "pcoordx": -8.253179, "vigiadas": "Sim", "galardoadas": "Sim", "id_c": 1500801.0, "fotos": "https:\/\/i.ibb.co\/F0p1ZNw\/praia-peneco.jpg" }, "geometry": { "type": "Point", "coordinates": [ -8.25318, 37.08627 ] } },
{ "type": "Feature", "properties": { "id_p": 19.0, "nome_praia": "Praia dos Pescadores", "pcoordy": 37.08667, "pcoordx": -8.249772, "vigiadas": "Sim", "galardoadas": "Sim", "id_c": 1500801.0, "fotos": "https:\/\/i.ibb.co\/R9CYnt7\/praia-pescadores.jpg" }, "geometry": { "type": "Point", "coordinates": [ -8.24977, 37.08667 ] } },
{ "type": "Feature", "properties": { "id_p": 20.0, "nome_praia": "Praia da Rocha Baixinha", "pcoordy": 37.075545, "pcoordx": -8.132218, "vigiadas": "Sim", "galardoadas": "Não", "id_c": 1500801.0, "fotos": "https:\/\/i.ibb.co\/k3JwX5s\/praia-rocha-baixinha-Gvjf-L.jpg" }, "geometry": { "type": "Point", "coordinates": [ -8.13222, 37.07554 ] } },
{ "type": "Feature", "properties": { "id_p": 21.0, "nome_praia": "Praia da Rocha Baixinha nascente", "pcoordy": 37.076094, "pcoordx": -8.134279, "vigiadas": "Sim", "galardoadas": "Não", "id_c": 1500801.0, "fotos": "https:\/\/i.ibb.co\/2FdsM0L\/praia-rocha-baixinha-L5m5j.jpg" }, "geometry": { "type": "Point", "coordinates": [ -8.13428, 37.07609 ] } },
{ "type": "Feature", "properties": { "id_p": 22.0, "nome_praia": "Praia da Rocha Baixinha Poente", "pcoordy": 37.080762, "pcoordx": -8.150454, "vigiadas": "Sim", "galardoadas": "Não", "id_c": 1500801.0, "fotos": "https:\/\/i.ibb.co\/q1jynPv\/praia-rocha-baixinha-XWAMt.jpg" }, "geometry": { "type": "Point", "coordinates": [ -8.15045, 37.08076 ] } },
{ "type": "Feature", "properties": { "id_p": 23.0, "nome_praia": "Praia de S,Rafael", "pcoordy": 37.074728, "pcoordx": -8.280552, "vigiadas": "Sim", "galardoadas": "Sim", "id_c": 1500801.0, "fotos": "https:\/\/i.ibb.co\/nDQGw74\/praia-srafael.jpg" }, "geometry": { "type": "Point", "coordinates": [ -8.28055, 37.07473 ] } },
{ "type": "Feature", "properties": { "id_p": 24.0, "nome_praia": "Praia dos Salgados", "pcoordy": 37.088582, "pcoordx": -8.329123, "vigiadas": "Sim", "galardoadas": "Sim", "id_c": 1500801.0, "fotos": "https:\/\/i.ibb.co\/k6mgSFP\/praia-salgados.jpg" }, "geometry": { "type": "Point", "coordinates": [ -8.32912, 37.08858 ] } },
{ "type": "Feature", "properties": { "id_p": 25.0, "nome_praia": "Praia da Santa Eulália", "pcoordy": 37.087777, "pcoordx": -8.214562, "vigiadas": "Sim", "galardoadas": "Sim", "id_c": 1500801.0, "fotos": "https:\/\/i.ibb.co\/wBJBkZQ\/praia-santa-eulalia.jpg" }, "geometry": { "type": "Point", "coordinates": [ -8.21456, 37.08778 ] } },
{ "type": "Feature", "properties": { "id_p": 51.0, "nome_praia": "Praia da Marinha", "pcoordy": 37.089646, "pcoordx": -8.412976, "vigiadas": "Sim", "galardoadas": "Sim", "id_c": 1500806.0, "fotos": "https:\/\/i.ibb.co\/0DwnDdS\/praia-marinha.jpg" }, "geometry": { "type": "Point", "coordinates": [ -8.41298, 37.08965 ] } },
{ "type": "Feature", "properties": { "id_p": 52.0, "nome_praia": "Praia do Pintadinho", "pcoordy": 37.107772, "pcoordx": -8.518696, "vigiadas": "Sim", "galardoadas": "Não", "id_c": 1500806.0, "fotos": "https:\/\/i.ibb.co\/0ntw9pq\/praia-pintadinho.jpg" }, "geometry": { "type": "Point", "coordinates": [ -8.5187, 37.10777 ] } },
{ "type": "Feature", "properties": { "id_p": 1.0, "nome_praia": "Praia dos Alemães", "pcoordy": 37.084645, "pcoordx": -8.239932, "vigiadas": "Sim", "galardoadas": "Sim", "id_c": 1500801.0, "fotos": "https:\/\/i.ibb.co\/MPBYVJj\/praia-alemaes.jpg" }, "geometry": { "type": "Point", "coordinates": [ -8.23993, 37.08465 ] } },
{ "type": "Feature", "properties": { "id_p": 53.0, "nome_praia": "Praia da Senhora da Rocha", "pcoordy": 37.097022, "pcoordx": -8.385676, "vigiadas": "Sim", "galardoadas": "Sim", "id_c": 1500806.0, "fotos": "https:\/\/i.ibb.co\/R9mXvTB\/praia-sra-rocha.jpg" }, "geometry": { "type": "Point", "coordinates": [ -8.38568, 37.09702 ] } },
{ "type": "Feature", "properties": { "id_p": 54.0, "nome_praia": "Praia de Vale Centeanes", "pcoordy": 37.091137, "pcoordx": -8.454798, "vigiadas": "Sim", "galardoadas": "Não", "id_c": 1500806.0, "fotos": "https:\/\/i.ibb.co\/wycBB8g\/praia-vale-centeanes.jpg" }, "geometry": { "type": "Point", "coordinates": [ -8.4548, 37.09114 ] } },
{ "type": "Feature", "properties": { "id_p": 55.0, "nome_praia": "Praia do Vale Olival", "pcoordy": 37.101754, "pcoordx": -8.370354, "vigiadas": "Sim", "galardoadas": "Sim", "id_c": 1500806.0, "fotos": "https:\/\/i.ibb.co\/744x1Ft\/praia-vale-olival.jpg" }, "geometry": { "type": "Point", "coordinates": [ -8.37035, 37.10175 ] } },
{ "type": "Feature", "properties": { "id_p": 57.0, "nome_praia": "Praia da Batata", "pcoordy": 37.097734, "pcoordx": -8.668062, "vigiadas": "Sim", "galardoadas": "Não", "id_c": 1500807.0, "fotos": "https:\/\/i.ibb.co\/KGLmBjG\/praia-batata.jpg" }, "geometry": { "type": "Point", "coordinates": [ -8.66806, 37.09773 ] } },
{ "type": "Feature", "properties": { "id_p": 58.0, "nome_praia": "Praia do Camilo", "pcoordy": 37.087353, "pcoordx": -8.668517, "vigiadas": "Sim", "galardoadas": "Não", "id_c": 1500807.0, "fotos": "https:\/\/i.ibb.co\/mBZnTxZ\/praia-camilo.jpg" }, "geometry": { "type": "Point", "coordinates": [ -8.66852, 37.08735 ] } },
{ "type": "Feature", "properties": { "id_p": 59.0, "nome_praia": "Praia do Canavial", "pcoordy": 37.083849, "pcoordx": -8.679425, "vigiadas": "Não", "galardoadas": "Não", "id_c": 1500807.0, "fotos": "https:\/\/i.ibb.co\/wSxNRTq\/praia-canavial.jpg" }, "geometry": { "type": "Point", "coordinates": [ -8.67943, 37.08385 ] } },
{ "type": "Feature", "properties": { "id_p": 60.0, "nome_praia": "Praias da Costa DOiro", "pcoordy": 37.089302, "pcoordx": -8.668826, "vigiadas": "Não", "galardoadas": "Não", "id_c": 1500807.0, "fotos": "https:\/\/i.ibb.co\/8jYyWkW\/praia-costa-oiro.jpg" }, "geometry": { "type": "Point", "coordinates": [ -8.66883, 37.0893 ] } },
{ "type": "Feature", "properties": { "id_p": 76.0, "nome_praia": "Praia de Quarteira", "pcoordy": 37.060866, "pcoordx": -8.087703, "vigiadas": "Sim", "galardoadas": "Não", "id_c": 1500808.0, "fotos": "https:\/\/i.ibb.co\/sm3dLnx\/praia-quarteira.jpg" }, "geometry": { "type": "Point", "coordinates": [ -8.0877, 37.06087 ] } },
{ "type": "Feature", "properties": { "id_p": 77.0, "nome_praia": "Praia da Quinta do Lago", "pcoordy": 37.025051, "pcoordx": -8.025567, "vigiadas": "Sim", "galardoadas": "Não", "id_c": 1500808.0, "fotos": "https:\/\/i.ibb.co\/dpHTt7F\/praia-quinta-lago.jpg" }, "geometry": { "type": "Point", "coordinates": [ -8.02557, 37.02505 ] } },
{ "type": "Feature", "properties": { "id_p": 2.0, "nome_praia": "Praia dos Arrifes", "pcoordy": 37.076025, "pcoordx": -8.277374, "vigiadas": "Sim", "galardoadas": "Sim", "id_c": 1500801.0, "fotos": "https:\/\/i.ibb.co\/PxCZZS1\/praia-arrifes.jpg" }, "geometry": { "type": "Point", "coordinates": [ -8.27737, 37.07603 ] } },
{ "type": "Feature", "properties": { "id_p": 26.0, "nome_praia": "Praia Fluvial do Pego Fundo", "pcoordy": 37.472009, "pcoordx": -7.476887, "vigiadas": "Sim", "galardoadas": "Não", "id_c": 1500802.0, "fotos": "https:\/\/i.ibb.co\/tsPvnBS\/praia-fluvial-fundo.jpg" }, "geometry": { "type": "Point", "coordinates": [ -7.47689, 37.47201 ] } },
{ "type": "Feature", "properties": { "id_p": 28.0, "nome_praia": "Praia do Amado", "pcoordy": 37.118674, "pcoordx": -8.551805, "vigiadas": "Sim", "galardoadas": "Sim", "id_c": 1500803.0, "fotos": "https:\/\/i.ibb.co\/T4xtGC5\/praia-amado.jpg" }, "geometry": { "type": "Point", "coordinates": [ -8.5518, 37.11867 ] } },
{ "type": "Feature", "properties": { "id_p": 36.0, "nome_praia": "Praia de Alagoa\/Altura", "pcoordy": 37.169284, "pcoordx": -7.498274, "vigiadas": "Sim", "galardoadas": "Sim", "id_c": 1500804.0, "fotos": "https:\/\/i.ibb.co\/gSB8cR7\/praia-alagoa-altura.jpg" }, "geometry": { "type": "Point", "coordinates": [ -7.49827, 37.16928 ] } },
{ "type": "Feature", "properties": { "id_p": 37.0, "nome_praia": "Praia do Cabeço", "pcoordy": 37.175189, "pcoordx": -7.471811, "vigiadas": "Sim", "galardoadas": "Sim", "id_c": 1500804.0, "fotos": "https:\/\/i.ibb.co\/4jKDgT8\/praia-cabeco.jpg" }, "geometry": { "type": "Point", "coordinates": [ -7.47181, 37.17519 ] } },
{ "type": "Feature", "properties": { "id_p": 38.0, "nome_praia": "Praia Verde", "pcoordy": 37.171835, "pcoordx": -7.488422, "vigiadas": "Sim", "galardoadas": "Sim", "id_c": 1500804.0, "fotos": "https:\/\/i.ibb.co\/5YBkb0m\/praia-verde.jpg" }, "geometry": { "type": "Point", "coordinates": [ -7.48842, 37.17184 ] } },
{ "type": "Feature", "properties": { "id_p": 40.0, "nome_praia": "Praia da Barrinha \/ Barra de S, Luís", "pcoordy": 36.986705, "pcoordx": -7.964038, "vigiadas": "Não", "galardoadas": "Não", "id_c": 1500805.0, "fotos": "https:\/\/i.ibb.co\/yffS0V1\/praia-barrinha.jpg" }, "geometry": { "type": "Point", "coordinates": [ -7.96404, 36.98671 ] } },
{ "type": "Feature", "properties": { "id_p": 41.0, "nome_praia": "Praia da Culatra", "pcoordy": 36.999067, "pcoordx": -7.809688, "vigiadas": "Sim", "galardoadas": "Sim", "id_c": 1500805.0, "fotos": "https:\/\/i.ibb.co\/LZZ4Rgj\/praia-culatra.jpg" }, "geometry": { "type": "Point", "coordinates": [ -7.80969, 36.99907 ] } },
{ "type": "Feature", "properties": { "id_p": 42.0, "nome_praia": "Praia de Faro", "pcoordy": 37.007665, "pcoordx": -7.995101, "vigiadas": "Sim", "galardoadas": "Não", "id_c": 1500805.0, "fotos": "https:\/\/i.ibb.co\/PYScSY5\/praia-faro.jpg" }, "geometry": { "type": "Point", "coordinates": [ -7.9951, 37.00767 ] } },
{ "type": "Feature", "properties": { "id_p": 44.0, "nome_praia": "Praia da Albandeira", "pcoordy": 37.090867, "pcoordx": -8.400433, "vigiadas": "Sim", "galardoadas": "Não", "id_c": 1500806.0, "fotos": "https:\/\/i.ibb.co\/Jcjm1H5\/praia-albandeira.jpg" }, "geometry": { "type": "Point", "coordinates": [ -8.40043, 37.09087 ] } },
{ "type": "Feature", "properties": { "id_p": 45.0, "nome_praia": "Praia de Benagil", "pcoordy": 37.08731, "pcoordx": -8.425787, "vigiadas": "Sim", "galardoadas": "Sim", "id_c": 1500806.0, "fotos": "https:\/\/i.ibb.co\/JkJSQfh\/praia-benagil.jpg" }, "geometry": { "type": "Point", "coordinates": [ -8.42579, 37.08731 ] } },
{ "type": "Feature", "properties": { "id_p": 46.0, "nome_praia": "Praia dos Caneiros", "pcoordy": 37.10511, "pcoordx": -8.513772, "vigiadas": "Sim", "galardoadas": "Sim", "id_c": 1500806.0, "fotos": "https:\/\/i.ibb.co\/DzyB964\/praia-caneiros.jpg" }, "geometry": { "type": "Point", "coordinates": [ -8.51377, 37.10511 ] } },
{ "type": "Feature", "properties": { "id_p": 47.0, "nome_praia": "Praia do Carvalho", "pcoordy": 37.086669, "pcoordx": -8.431789, "vigiadas": "Sim", "galardoadas": "Sim", "id_c": 1500806.0, "fotos": "https:\/\/i.ibb.co\/zmNyV2J\/praia-carvalho.jpg" }, "geometry": { "type": "Point", "coordinates": [ -8.43179, 37.08667 ] } },
{ "type": "Feature", "properties": { "id_p": 48.0, "nome_praia": "Praia de Carvoeiro", "pcoordy": 37.096026, "pcoordx": -8.472163, "vigiadas": "Sim", "galardoadas": "Não", "id_c": 1500806.0, "fotos": "https:\/\/i.ibb.co\/k9JQ6Qs\/praia-carvoeiro.jpg" }, "geometry": { "type": "Point", "coordinates": [ -8.47216, 37.09603 ] } },
{ "type": "Feature", "properties": { "id_p": 49.0, "nome_praia": "Praia da Cova Redonda", "pcoordy": 37.098593, "pcoordx": -8.380045, "vigiadas": "Sim", "galardoadas": "Sim", "id_c": 1500806.0, "fotos": "https:\/\/i.ibb.co\/RQxb0zq\/praia-cova-redonda.jpg" }, "geometry": { "type": "Point", "coordinates": [ -8.38005, 37.09859 ] } },
{ "type": "Feature", "properties": { "id_p": 50.0, "nome_praia": "Praia Grande (Ferragudo)", "pcoordy": 37.116007, "pcoordx": -8.519691, "vigiadas": "Sim", "galardoadas": "Sim", "id_c": 1500806.0, "fotos": "https:\/\/i.ibb.co\/Z6pJmc4\/praia-grande-ferragu-f1pg-F.jpg" }, "geometry": { "type": "Point", "coordinates": [ -8.51969, 37.11601 ] } },
{ "type": "Feature", "properties": { "id_p": 27.0, "nome_praia": "Praia de Adegas", "pcoordy": 37.439027, "pcoordx": -8.800455, "vigiadas": "Não", "galardoadas": "Não", "id_c": 1500803.0, "fotos": "https:\/\/i.ibb.co\/brN4f1W\/praia-adegas.jpg" }, "geometry": { "type": "Point", "coordinates": [ -8.80045, 37.43903 ] } },
{ "type": "Feature", "properties": { "id_p": 29.0, "nome_praia": "Praia da Amoreira", "pcoordy": 37.349746, "pcoordx": -8.845308, "vigiadas": "Sim", "galardoadas": "Sim", "id_c": 1500803.0, "fotos": "https:\/\/i.ibb.co\/YdNdGPF\/praia-amoreira.jpg" }, "geometry": { "type": "Point", "coordinates": [ -8.84531, 37.34975 ] } },
{ "type": "Feature", "properties": { "id_p": 30.0, "nome_praia": "Praia da Arrifana", "pcoordy": 37.292158, "pcoordx": -8.864692, "vigiadas": "Sim", "galardoadas": "Sim", "id_c": 1500803.0, "fotos": "https:\/\/i.ibb.co\/2yKrZ0Q\/praia-arrifana.jpg" }, "geometry": { "type": "Point", "coordinates": [ -8.86469, 37.29216 ] } },
{ "type": "Feature", "properties": { "id_p": 31.0, "nome_praia": "Praia da Bordeira", "pcoordy": 37.198268, "pcoordx": -8.898649, "vigiadas": "Não", "galardoadas": "Sim", "id_c": 1500803.0, "fotos": "https:\/\/i.ibb.co\/sQrSNSr\/praia-bordeira.jpg" }, "geometry": { "type": "Point", "coordinates": [ -8.89865, 37.19827 ] } },
{ "type": "Feature", "properties": { "id_p": 61.0, "nome_praia": "Praia da Dona Ana", "pcoordy": 37.091885, "pcoordx": -8.668883, "vigiadas": "Sim", "galardoadas": "Não", "id_c": 1500807.0, "fotos": "https:\/\/i.ibb.co\/nDbH5Hq\/praia-dona-ana.jpg" }, "geometry": { "type": "Point", "coordinates": [ -8.66888, 37.09188 ] } },
{ "type": "Feature", "properties": { "id_p": 63.0, "nome_praia": "Praia do Martinhal", "pcoordy": 37.082128, "pcoordx": -8.672725, "vigiadas": "Não", "galardoadas": "Não", "id_c": 1500807.0, "fotos": "https:\/\/i.ibb.co\/C7pRCtg\/praia-martinhal.jpg" }, "geometry": { "type": "Point", "coordinates": [ -8.67272, 37.08213 ] } },
{ "type": "Feature", "properties": { "id_p": 64.0, "nome_praia": "Meia Praia", "pcoordy": 37.118742, "pcoordx": -8.640893, "vigiadas": "Sim", "galardoadas": "Sim", "id_c": 1500807.0, "fotos": "https:\/\/i.ibb.co\/NWKLVc5\/meia-praia.jpg" }, "geometry": { "type": "Point", "coordinates": [ -8.64089, 37.11874 ] } },
{ "type": "Feature", "properties": { "id_p": 65.0, "nome_praia": "Praia Ponta da Piedade", "pcoordy": 37.079957, "pcoordx": -8.669202, "vigiadas": "Não", "galardoadas": "Não", "id_c": 1500807.0, "fotos": "https:\/\/i.ibb.co\/4mhc0KF\/praia-ponta-piedade.jpg" }, "geometry": { "type": "Point", "coordinates": [ -8.6692, 37.07996 ] } },
{ "type": "Feature", "properties": { "id_p": 66.0, "nome_praia": "Praia do Pinhão", "pcoordy": 37.094952, "pcoordx": -8.667596, "vigiadas": "Não", "galardoadas": "Não", "id_c": 1500807.0, "fotos": "https:\/\/i.ibb.co\/wK7qgzx\/praia-pinhao.jpg" }, "geometry": { "type": "Point", "coordinates": [ -8.6676, 37.09495 ] } },
{ "type": "Feature", "properties": { "id_p": 67.0, "nome_praia": "Praia dos Pinheiros", "pcoordy": 37.084314, "pcoordx": -8.667256, "vigiadas": "Não", "galardoadas": "Não", "id_c": 1500807.0, "fotos": "https:\/\/i.ibb.co\/hB0fRJd\/praia-pinheiros.jpg" }, "geometry": { "type": "Point", "coordinates": [ -8.66726, 37.08431 ] } },
{ "type": "Feature", "properties": { "id_p": 68.0, "nome_praia": "Praia do Porto de Mós", "pcoordy": 37.085241, "pcoordx": -8.687773, "vigiadas": "Sim", "galardoadas": "Sim", "id_c": 1500807.0, "fotos": "https:\/\/i.ibb.co\/MMjr8LW\/praia-porto-mos.jpg" }, "geometry": { "type": "Point", "coordinates": [ -8.68777, 37.08524 ] } },
{ "type": "Feature", "properties": { "id_p": 69.0, "nome_praia": "Praia do Vale da Lama\/Ria de Alvor", "pcoordy": 37.120925, "pcoordx": -8.627851, "vigiadas": "Não", "galardoadas": "Não", "id_c": 1500807.0, "fotos": "https:\/\/i.ibb.co\/SdqV1sK\/praia-vale-lama.jpg" }, "geometry": { "type": "Point", "coordinates": [ -8.62785, 37.12092 ] } },
{ "type": "Feature", "properties": { "id_p": 70.0, "nome_praia": "Praia do Almargem", "pcoordy": 37.058128, "pcoordx": -8.082921, "vigiadas": "Sim", "galardoadas": "Não", "id_c": 1500808.0, "fotos": "https:\/\/i.ibb.co\/3Fv5ry1\/praia-almargem.jpg" }, "geometry": { "type": "Point", "coordinates": [ -8.08292, 37.05813 ] } },
{ "type": "Feature", "properties": { "id_p": 71.0, "nome_praia": "Praia do Ancão", "pcoordy": 37.030687, "pcoordx": -8.03553, "vigiadas": "Sim", "galardoadas": "Não", "id_c": 1500808.0, "fotos": "https:\/\/i.ibb.co\/pRtRXvF\/praia-ancao.jpg" }, "geometry": { "type": "Point", "coordinates": [ -8.03553, 37.03069 ] } },
{ "type": "Feature", "properties": { "id_p": 72.0, "nome_praia": "Praia do Forte Novo", "pcoordy": 37.061401, "pcoordx": -8.088395, "vigiadas": "Sim", "galardoadas": "Não", "id_c": 1500808.0, "fotos": "https:\/\/i.ibb.co\/p0hQJRm\/praia-forte-novo.jpg" }, "geometry": { "type": "Point", "coordinates": [ -8.0884, 37.0614 ] } },
{ "type": "Feature", "properties": { "id_p": 73.0, "nome_praia": "Praia do Garrão Nascente", "pcoordy": 37.039472, "pcoordx": -8.050193, "vigiadas": "Sim", "galardoadas": "Não", "id_c": 1500808.0, "fotos": "https:\/\/i.ibb.co\/3fLpMGX\/praia-garrao-nascent-8-W2nb.jpg" }, "geometry": { "type": "Point", "coordinates": [ -8.05019, 37.03947 ] } },
{ "type": "Feature", "properties": { "id_p": 74.0, "nome_praia": "Praia do Garrão Poente", "pcoordy": 37.0433, "pcoordx": -8.056776, "vigiadas": "Sim", "galardoadas": "Não", "id_c": 1500808.0, "fotos": "https:\/\/i.ibb.co\/cLsFS2X\/praia-garrao-poente.jpg" }, "geometry": { "type": "Point", "coordinates": [ -8.05678, 37.0433 ] } },
{ "type": "Feature", "properties": { "id_p": 75.0, "nome_praia": "Praia de Loulé Velho", "pcoordy": 37.055418, "pcoordx": -8.077502, "vigiadas": "Sim", "galardoadas": "Não", "id_c": 1500808.0, "fotos": "https:\/\/i.ibb.co\/vDY45g7\/praia-loule-velho.jpg" }, "geometry": { "type": "Point", "coordinates": [ -8.0775, 37.05542 ] } },
{ "type": "Feature", "properties": { "id_p": 83.0, "nome_praia": "Praia da Fuseta Ria", "pcoordy": 37.051094, "pcoordx": -7.743304, "vigiadas": "Sim", "galardoadas": "Sim", "id_c": 1500810.0, "fotos": "https:\/\/i.ibb.co\/p2Dcng1\/praia-fuseta-r.jpg" }, "geometry": { "type": "Point", "coordinates": [ -7.7433, 37.05109 ] } },
{ "type": "Feature", "properties": { "id_p": 84.0, "nome_praia": "Praia dos Cavacos", "pcoordy": 37.036885, "pcoordx": -7.794823, "vigiadas": "Não", "galardoadas": "Não", "id_c": 1500810.0, "fotos": "https:\/\/i.ibb.co\/kScs2C4\/praia-cavacos.jpg" }, "geometry": { "type": "Point", "coordinates": [ -7.79482, 37.03688 ] } },
{ "type": "Feature", "properties": { "id_p": 85.0, "nome_praia": "Praia de Alvor", "pcoordy": 37.122721, "pcoordx": -8.600303, "vigiadas": "Sim", "galardoadas": "Sim", "id_c": 1500811.0, "fotos": "https:\/\/i.ibb.co\/RvztgQv\/praia-alvor.jpg" }, "geometry": { "type": "Point", "coordinates": [ -8.6003, 37.12272 ] } },
{ "type": "Feature", "properties": { "id_p": 86.0, "nome_praia": "Praia dos Careanos", "pcoordy": 37.118885, "pcoordx": -8.554742, "vigiadas": "Sim", "galardoadas": "Sim", "id_c": 1500811.0, "fotos": "https:\/\/i.ibb.co\/RBWTH0m\/praia-careanos.jpg" }, "geometry": { "type": "Point", "coordinates": [ -8.55474, 37.11888 ] } },
{ "type": "Feature", "properties": { "id_p": 87.0, "nome_praia": "Praia da Marina", "pcoordy": 37.115164, "pcoordx": -8.528586, "vigiadas": "Sim", "galardoadas": "Não", "id_c": 1500811.0, "fotos": "https:\/\/i.ibb.co\/Q70bmgM\/praia-marina.jpg" }, "geometry": { "type": "Point", "coordinates": [ -8.52859, 37.11516 ] } },
{ "type": "Feature", "properties": { "id_p": 88.0, "nome_praia": "Praia da Rocha", "pcoordy": 37.116546, "pcoordx": -8.535282, "vigiadas": "Sim", "galardoadas": "Sim", "id_c": 1500811.0, "fotos": "https:\/\/i.ibb.co\/bFTGYB3\/praia-rocha-portimao.jpg" }, "geometry": { "type": "Point", "coordinates": [ -8.53528, 37.11655 ] } },
{ "type": "Feature", "properties": { "id_p": 89.0, "nome_praia": "Praia da Torralta", "pcoordy": 37.121695, "pcoordx": -8.58884, "vigiadas": "Sim", "galardoadas": "Não", "id_c": 1500811.0, "fotos": "https:\/\/i.ibb.co\/wrx13Qx\/praia-torralta.jpg" }, "geometry": { "type": "Point", "coordinates": [ -8.58884, 37.1217 ] } },
{ "type": "Feature", "properties": { "id_p": 90.0, "nome_praia": "Praia dos Três Castelos", "pcoordy": 37.117544, "pcoordx": -8.546587, "vigiadas": "Sim", "galardoadas": "Sim", "id_c": 1500811.0, "fotos": "https:\/\/i.ibb.co\/Y08QKrd\/praia3-castelos.jpg" }, "geometry": { "type": "Point", "coordinates": [ -8.54659, 37.11754 ] } },
{ "type": "Feature", "properties": { "id_p": 91.0, "nome_praia": "Praia dos Três Irmãos", "pcoordy": 37.119308, "pcoordx": -8.580304, "vigiadas": "Sim", "galardoadas": "Não", "id_c": 1500811.0, "fotos": "https:\/\/i.ibb.co\/pw0hd6t\/praia3-irmaos.jpg" }, "geometry": { "type": "Point", "coordinates": [ -8.5803, 37.11931 ] } },
{ "type": "Feature", "properties": { "id_p": 92.0, "nome_praia": "Prainha", "pcoordy": 37.118059, "pcoordx": -8.578264, "vigiadas": "Sim", "galardoadas": "Sim", "id_c": 1500811.0, "fotos": "https:\/\/i.ibb.co\/wwxGbFV\/prainha.jpg" }, "geometry": { "type": "Point", "coordinates": [ -8.57826, 37.11806 ] } },
{ "type": "Feature", "properties": { "id_p": 93.0, "nome_praia": "Praia do Vau", "pcoordy": 37.119858, "pcoordx": -8.557746, "vigiadas": "Sim", "galardoadas": "Sim", "id_c": 1500811.0, "fotos": "https:\/\/i.ibb.co\/q1YMj2y\/praia-vau.jpg" }, "geometry": { "type": "Point", "coordinates": [ -8.55775, 37.11986 ] } },
{ "type": "Feature", "properties": { "id_p": 94.0, "nome_praia": "Praia Grande (Nascente)", "pcoordy": 37.093077, "pcoordx": -8.338453, "vigiadas": "Sim", "galardoadas": "Sim", "id_c": 1500813.0, "fotos": "https:\/\/i.ibb.co\/t8Q4TKN\/praia-grande-pera-na-4-Qrze.jpg" }, "geometry": { "type": "Point", "coordinates": [ -8.33845, 37.09308 ] } },
{ "type": "Feature", "properties": { "id_p": 95.0, "nome_praia": "Praia Grande (Poente)", "pcoordy": 37.096872, "pcoordx": -8.34734, "vigiadas": "Sim", "galardoadas": "Sim", "id_c": 1500813.0, "fotos": "https:\/\/i.ibb.co\/HC1RyL4\/praia-grande-pera-po-pm-Naa.jpg" }, "geometry": { "type": "Point", "coordinates": [ -8.34734, 37.09687 ] } },
{ "type": "Feature", "properties": { "id_p": 96.0, "nome_praia": "Praia de Armação de Pêra", "pcoordy": 37.099495, "pcoordx": -8.355011, "vigiadas": "Sim", "galardoadas": "Sim", "id_c": 1500813.0, "fotos": "https:\/\/i.ibb.co\/P9xHH8k\/praia-armacao-pera.jpg" }, "geometry": { "type": "Point", "coordinates": [ -8.35501, 37.09949 ] } },
{ "type": "Feature", "properties": { "id_p": 97.0, "nome_praia": "Praia de Armação de Pêra (Nascente)", "pcoordy": 37.098751, "pcoordx": -8.352025, "vigiadas": "Sim", "galardoadas": "Sim", "id_c": 1500813.0, "fotos": "https:\/\/i.ibb.co\/WK5vQGw\/praia-armacao-pera-n.jpg" }, "geometry": { "type": "Point", "coordinates": [ -8.35202, 37.09875 ] } },
{ "type": "Feature", "properties": { "id_p": 98.0, "nome_praia": "Praia do Barril", "pcoordy": 37.085949, "pcoordx": -7.662173, "vigiadas": "Sim", "galardoadas": "Sim", "id_c": 1500814.0, "fotos": "https:\/\/i.ibb.co\/JRrXKjF\/praia-barril.jpg" }, "geometry": { "type": "Point", "coordinates": [ -7.66217, 37.08595 ] } },
{ "type": "Feature", "properties": { "id_p": 99.0, "nome_praia": "Praia de Cabanas", "pcoordy": 37.133729, "pcoordx": -7.590042, "vigiadas": "Sim", "galardoadas": "Sim", "id_c": 1500814.0, "fotos": "https:\/\/i.ibb.co\/5Ywk6qp\/praia-cabanas.jpg" }, "geometry": { "type": "Point", "coordinates": [ -7.59004, 37.13373 ] } },
{ "type": "Feature", "properties": { "id_p": 100.0, "nome_praia": "Praia da Ilha de Tavira", "pcoordy": 37.110137, "pcoordx": -7.620465, "vigiadas": "Sim", "galardoadas": "Sim", "id_c": 1500814.0, "fotos": "https:\/\/i.ibb.co\/NSGqsKV\/praia-ilha-tavira.jpg" }, "geometry": { "type": "Point", "coordinates": [ -7.62047, 37.11014 ] } },
{ "type": "Feature", "properties": { "id_p": 101.0, "nome_praia": "Praia do Lacém", "pcoordy": 37.143487, "pcoordx": -7.567877, "vigiadas": "Sim", "galardoadas": "Não", "id_c": 1500814.0, "fotos": "https:\/\/i.ibb.co\/h2XGM10\/praia-lacem.jpg" }, "geometry": { "type": "Point", "coordinates": [ -7.56788, 37.14349 ] } },
{ "type": "Feature", "properties": { "id_p": 102.0, "nome_praia": "Praia da Terra Estreita", "pcoordy": 37.098779, "pcoordx": -7.639753, "vigiadas": "Sim", "galardoadas": "Sim", "id_c": 1500814.0, "fotos": "https:\/\/i.ibb.co\/x2LvtCv\/praia-terra-estreita.jpg" }, "geometry": { "type": "Point", "coordinates": [ -7.63975, 37.09878 ] } },
{ "type": "Feature", "properties": { "id_p": 117.0, "nome_praia": "Praia da Fabrica \/ Cacela Velha", "pcoordy": 37.153284, "pcoordx": -7.543589, "vigiadas": "Sim", "galardoadas": "Sim", "id_c": 1500816.0, "fotos": "https:\/\/i.ibb.co\/WtPQmhq\/praia-cacela-velha.jpg" }, "geometry": { "type": "Point", "coordinates": [ -7.54359, 37.15328 ] } },
{ "type": "Feature", "properties": { "id_p": 118.0, "nome_praia": "Praia da Lota", "pcoordy": 37.16392, "pcoordx": -7.516997, "vigiadas": "Sim", "galardoadas": "Sim", "id_c": 1500816.0, "fotos": "https:\/\/i.ibb.co\/GPJPhJt\/praia-lota.jpg" }, "geometry": { "type": "Point", "coordinates": [ -7.517, 37.16392 ] } },
{ "type": "Feature", "properties": { "id_p": 119.0, "nome_praia": "Praia da Manta Rota", "pcoordy": 37.163029, "pcoordx": -7.519052, "vigiadas": "Sim", "galardoadas": "Sim", "id_c": 1500816.0, "fotos": "https:\/\/i.ibb.co\/d4khswH\/praia-manta-rota.jpg" }, "geometry": { "type": "Point", "coordinates": [ -7.51905, 37.16303 ] } },
{ "type": "Feature", "properties": { "id_p": 120.0, "nome_praia": "Praia de Monte Gordo", "pcoordy": 37.177213, "pcoordx": -7.446605, "vigiadas": "Sim", "galardoadas": "Não", "id_c": 1500816.0, "fotos": "https:\/\/i.ibb.co\/fH18sdv\/praia-monte-gordo.jpg" }, "geometry": { "type": "Point", "coordinates": [ -7.4466, 37.17721 ] } },
{ "type": "Feature", "properties": { "id_p": 121.0, "nome_praia": "Praia de Santo António", "pcoordy": 37.173431, "pcoordx": -7.422241, "vigiadas": "Sim", "galardoadas": "Não", "id_c": 1500816.0, "fotos": "https:\/\/i.ibb.co\/T0m757C\/praia-santo-antonio.jpg" }, "geometry": { "type": "Point", "coordinates": [ -7.42224, 37.17343 ] } },
{ "type": "Feature", "properties": { "id_p": 78.0, "nome_praia": "Praia de Vale do Lobo", "pcoordy": 37.047782, "pcoordx": -8.064443, "vigiadas": "Sim", "galardoadas": "Não", "id_c": 1500808.0, "fotos": "https:\/\/i.ibb.co\/9cfqdrj\/praia-vale-lobo.jpg" }, "geometry": { "type": "Point", "coordinates": [ -8.06444, 37.04778 ] } },
{ "type": "Feature", "properties": { "id_p": 79.0, "nome_praia": "Praia de Vilamoura", "pcoordy": 37.071477, "pcoordx": -8.116625, "vigiadas": "Sim", "galardoadas": "Não", "id_c": 1500808.0, "fotos": "https:\/\/i.ibb.co\/j33PS2W\/praia-vilamoura.jpg" }, "geometry": { "type": "Point", "coordinates": [ -8.11663, 37.07148 ] } },
{ "type": "Feature", "properties": { "id_p": 80.0, "nome_praia": "Praia da Armona Mar", "pcoordy": 37.012331, "pcoordx": -7.794175, "vigiadas": "Sim", "galardoadas": "Sim", "id_c": 1500810.0, "fotos": "https:\/\/i.ibb.co\/dLLXyMj\/praia-armona-m.jpg" }, "geometry": { "type": "Point", "coordinates": [ -7.79418, 37.01233 ] } },
{ "type": "Feature", "properties": { "id_p": 81.0, "nome_praia": "Praia da Armona Ria", "pcoordy": 37.023189, "pcoordx": -7.80527, "vigiadas": "Sim", "galardoadas": "Sim", "id_c": 1500810.0, "fotos": "https:\/\/i.ibb.co\/hf4724N\/praia-armona-r.jpg" }, "geometry": { "type": "Point", "coordinates": [ -7.80527, 37.02319 ] } },
{ "type": "Feature", "properties": { "id_p": 82.0, "nome_praia": "Praia da Fuseta Mar", "pcoordy": 37.037737, "pcoordx": -7.754234, "vigiadas": "Sim", "galardoadas": "Sim", "id_c": 1500810.0, "fotos": "https:\/\/i.ibb.co\/Jtnm9pG\/praia-fuseta-m.jpg" }, "geometry": { "type": "Point", "coordinates": [ -7.75423, 37.03774 ] } },
{ "type": "Feature", "properties": { "id_p": 56.0, "nome_praia": "Praia do Barranco", "pcoordy": 37.042262, "pcoordx": -8.895075, "vigiadas": "Não", "galardoadas": "Não", "id_c": 1500807.0, "fotos": "https:\/\/i.ibb.co\/sPjPBVv\/praia-barranco.jpg" }, "geometry": { "type": "Point", "coordinates": [ -8.89508, 37.04226 ] } },
{ "type": "Feature", "properties": { "id_p": 62.0, "nome_praia": "Praia da Luz", "pcoordy": 37.086796, "pcoordx": -8.726734, "vigiadas": "Sim", "galardoadas": "Sim", "id_c": 1500807.0, "fotos": "https:\/\/i.ibb.co\/mCzb3tf\/praia-luz.jpg" }, "geometry": { "type": "Point", "coordinates": [ -8.72673, 37.0868 ] } },
{ "type": "Feature", "properties": { "id_p": 103.0, "nome_praia": "Praia do Beliche", "pcoordy": 37.02555, "pcoordx": -8.964032, "vigiadas": "Sim", "galardoadas": "Não", "id_c": 1500815.0, "fotos": "https:\/\/i.ibb.co\/YNfFRS2\/praia-beliche.jpg" }, "geometry": { "type": "Point", "coordinates": [ -8.96403, 37.02555 ] } },
{ "type": "Feature", "properties": { "id_p": 104.0, "nome_praia": "Praia da Boca do Rio", "pcoordy": 37.066328, "pcoordx": -8.808822, "vigiadas": "Não", "galardoadas": "Sim", "id_c": 1500815.0, "fotos": "https:\/\/i.ibb.co\/p0CDXJ1\/praia-boca-rio.jpg" }, "geometry": { "type": "Point", "coordinates": [ -8.80882, 37.06633 ] } },
{ "type": "Feature", "properties": { "id_p": 105.0, "nome_praia": "Praia do Burgau", "pcoordy": 37.071647, "pcoordx": -8.775334, "vigiadas": "Sim", "galardoadas": "Não", "id_c": 1500815.0, "fotos": "https:\/\/i.ibb.co\/CP1jrtV\/praia-burgau.jpg" }, "geometry": { "type": "Point", "coordinates": [ -8.77533, 37.07165 ] } },
{ "type": "Feature", "properties": { "id_p": 106.0, "nome_praia": "Praia das Cabanas Velhas", "pcoordy": 37.065666, "pcoordx": -8.79498, "vigiadas": "Sim", "galardoadas": "Sim", "id_c": 1500815.0, "fotos": "https:\/\/i.ibb.co\/BqYp27d\/praia-cabanas-velhas.jpg" }, "geometry": { "type": "Point", "coordinates": [ -8.79498, 37.06567 ] } },
{ "type": "Feature", "properties": { "id_p": 107.0, "nome_praia": "Praia do Castelejo", "pcoordy": 37.099598, "pcoordx": -8.94615, "vigiadas": "Sim", "galardoadas": "Sim", "id_c": 1500815.0, "fotos": "https:\/\/i.ibb.co\/jbPZtgG\/praia-castelejo.jpg" }, "geometry": { "type": "Point", "coordinates": [ -8.94615, 37.0996 ] } },
{ "type": "Feature", "properties": { "id_p": 108.0, "nome_praia": "Praia da Cordoama", "pcoordy": 37.108802, "pcoordx": -8.937202, "vigiadas": "Sim", "galardoadas": "Sim", "id_c": 1500815.0, "fotos": "https:\/\/i.ibb.co\/tsPKRG8\/praia-cordoama.jpg" }, "geometry": { "type": "Point", "coordinates": [ -8.9372, 37.1088 ] } },
{ "type": "Feature", "properties": { "id_p": 109.0, "nome_praia": "Praia das Furnas", "pcoordy": 37.05537, "pcoordx": -8.854411, "vigiadas": "Não", "galardoadas": "Sim", "id_c": 1500815.0, "fotos": "https:\/\/i.ibb.co\/1bFQN0T\/praia-furnas.jpg" }, "geometry": { "type": "Point", "coordinates": [ -8.85441, 37.05537 ] } },
{ "type": "Feature", "properties": { "id_p": 110.0, "nome_praia": "Praia da Ingrina", "pcoordy": 37.046598, "pcoordx": -8.879025, "vigiadas": "Sim", "galardoadas": "Sim", "id_c": 1500815.0, "fotos": "https:\/\/i.ibb.co\/c3j5hHj\/praia-ingrina.jpg" }, "geometry": { "type": "Point", "coordinates": [ -8.87903, 37.0466 ] } },
{ "type": "Feature", "properties": { "id_p": 111.0, "nome_praia": "Praia da Mareta", "pcoordy": 37.005394, "pcoordx": -8.93874, "vigiadas": "Sim", "galardoadas": "Sim", "id_c": 1500815.0, "fotos": "https:\/\/i.ibb.co\/3vS9PCF\/praia-mareta.jpg" }, "geometry": { "type": "Point", "coordinates": [ -8.93874, 37.00539 ] } },
{ "type": "Feature", "properties": { "id_p": 112.0, "nome_praia": "Praia do Martinhal", "pcoordy": 37.019418, "pcoordx": -8.925369, "vigiadas": "Sim", "galardoadas": "Sim", "id_c": 1500815.0, "fotos": "https:\/\/i.ibb.co\/nPh2yfk\/praia-martinhal.jpg" }, "geometry": { "type": "Point", "coordinates": [ -8.92537, 37.01942 ] } },
{ "type": "Feature", "properties": { "id_p": 113.0, "nome_praia": "Praia da Muração", "pcoordy": 37.154669, "pcoordx": -8.908956, "vigiadas": "Não", "galardoadas": "Não", "id_c": 1500815.0, "fotos": "https:\/\/i.ibb.co\/YcGrMfS\/praia-muracao.jpg" }, "geometry": { "type": "Point", "coordinates": [ -8.90896, 37.15467 ] } },
{ "type": "Feature", "properties": { "id_p": 114.0, "nome_praia": "Praia da Salema", "pcoordy": 37.065319, "pcoordx": -8.823656, "vigiadas": "Sim", "galardoadas": "Sim", "id_c": 1500815.0, "fotos": "https:\/\/i.ibb.co\/7K7nmQX\/praia-salema.jpg" }, "geometry": { "type": "Point", "coordinates": [ -8.82366, 37.06532 ] } },
{ "type": "Feature", "properties": { "id_p": 115.0, "nome_praia": "Praia de Tonel", "pcoordy": 37.005721, "pcoordx": -8.947733, "vigiadas": "Sim", "galardoadas": "Sim", "id_c": 1500815.0, "fotos": "https:\/\/i.ibb.co\/3RTbQDc\/praia-tonel.jpg" }, "geometry": { "type": "Point", "coordinates": [ -8.94773, 37.00572 ] } },
{ "type": "Feature", "properties": { "id_p": 116.0, "nome_praia": "Praia do Zavial", "pcoordy": 37.044979, "pcoordx": -8.868047, "vigiadas": "Sim", "galardoadas": "Sim", "id_c": 1500815.0, "fotos": "https:\/\/i.ibb.co\/4RQZKjf\/praia-zavial.jpg" }, "geometry": { "type": "Point", "coordinates": [ -8.86805, 37.04498 ] } },
{ "type": "Feature", "properties": { "id_p": 32.0, "nome_praia": "Praia do Monte Clérigo", "pcoordy": 37.340811, "pcoordx": -8.853098, "vigiadas": "Sim", "galardoadas": "Sim", "id_c": 1500803.0, "fotos": "https:\/\/i.ibb.co\/0B49Q3L\/praia-monte-clerigo.jpg" }, "geometry": { "type": "Point", "coordinates": [ -8.8531, 37.34081 ] } },
{ "type": "Feature", "properties": { "id_p": 33.0, "nome_praia": "Praia de Odeceixe", "pcoordy": 37.441973, "pcoordx": -8.797308, "vigiadas": "Sim", "galardoadas": "Sim", "id_c": 1500803.0, "fotos": "https:\/\/i.ibb.co\/PDMyHMC\/praia-odeceixe.jpg" }, "geometry": { "type": "Point", "coordinates": [ -8.79731, 37.44197 ] } },
{ "type": "Feature", "properties": { "id_p": 34.0, "nome_praia": "Praia do Vale Figueiras", "pcoordy": 37.252197, "pcoordx": -8.865767, "vigiadas": "Sim", "galardoadas": "Sim", "id_c": 1500803.0, "fotos": "https:\/\/i.ibb.co\/3zzDbJ2\/praia-vale-figueiras.jpg" }, "geometry": { "type": "Point", "coordinates": [ -8.86577, 37.2522 ] } },
{ "type": "Feature", "properties": { "id_p": 35.0, "nome_praia": "Praia do Vale dos Homens", "pcoordy": 37.382727, "pcoordx": -8.825336, "vigiadas": "Não", "galardoadas": "Sim", "id_c": 1500803.0, "fotos": "https:\/\/i.ibb.co\/BP0bnHM\/praia-vale-homens.jpg" }, "geometry": { "type": "Point", "coordinates": [ -8.82534, 37.38273 ] } },
{ "type": "Feature", "properties": { "id_p": 39.0, "nome_praia": "Praia da Barreta \/ Ilha deserta", "pcoordy": 36.960916, "pcoordx": -7.891276, "vigiadas": "Sim", "galardoadas": "Sim", "id_c": 1500805.0, "fotos": "https:\/\/i.ibb.co\/tZwVn6x\/praia-barreta.jpg" }, "geometry": { "type": "Point", "coordinates": [ -7.89128, 36.96092 ] } },
{ "type": "Feature", "properties": { "id_p": 43.0, "nome_praia": "Praia da Ilha do Farol", "pcoordy": 36.974984, "pcoordx": -7.862623, "vigiadas": "Sim", "galardoadas": "Sim", "id_c": 1500805.0, "fotos": "https:\/\/i.ibb.co\/m4xDv3Z\/praia-ilha-farol.jpg" }, "geometry": { "type": "Point", "coordinates": [ -7.86262, 36.97498 ] } }
]
}
